[{"id":"1","name":"Harlow &amp; Harbour","lat":"51.4185955","lng":"-0.6818697","address":"10 Ascot Place","address2":"Windsor Rd, Ascot","city":"Berkshire","state":"","postal":"SL57GZ","phone":"","web":"","hours1":"","hours2":"","hours3":""},{"id":"2","name":"Cavern Menswear","lat":"53.4064197","lng":"-2.9881534","address":"20-24 cavern walks","address2":"Matthew street","city":"Liverpool","state":"","postal":"L26RE","phone":"151-236-6930","web":"http:\/\/www.cavernwalks.co.uk","hours1":"Mon-Sat 10am-6pm","hours2":"Sun 11am-4pm","hours3":""},{"id":"3","name":"Limited Manchester","lat":"53.4762054","lng":"-2.2528234","address":"283 Deansgate","address2":"","city":"Manchester","state":"","postal":"M34EW","phone":"0161 832 6055","web":"http:\/\/www.limitedmanchester.com","hours1":"Mon-Fri 10am-6pm","hours2":"Sat 10am-7pm","hours3":"Sun 11am-5pm"},{"id":"4","name":"A Shop Called Wood","lat":"53.6471131","lng":"-1.7834199","address":"14-18 Westgate","address2":"","city":"Huddersfield","state":"","postal":"HD11NN","phone":"1484 917119","web":"http:\/\/www.ashopcalledwood.com","hours1":"Mon-Sat 10am-5:30pm","hours2":"Sun Closed","hours3":""},{"id":"5","name":"Yakuza Menswear","lat":"54.905002","lng":"-1.3798973","address":"24 John Street","address2":"","city":"Sunderland","state":"","postal":"SR11JG","phone":"191 564 1825","web":"http:\/\/www.yakuzastore.com","hours1":"","hours2":"","hours3":""},{"id":"6","name":"Concept Store Y","lat":"51.511481","lng":"-0.135474","address":"57A Brewer Street","address2":"","city":"London","state":"","postal":"W1F9UL","phone":"02077349594","web":"http:\/\/www.conceptstore-y.com","hours1":"Mon-Sun 10am","hours2":"","hours3":""},{"id":"7","name":"Utter Couture","lat":"51.5234939","lng":"-0.0785956","address":"Unit 12","address2":"2-10 Bethnal Green Rd","city":"London","state":"","postal":"E16GY","phone":"612-333-0434","web":"http:\/\/www.uttercouture.com","hours1":"Mon-Sat 11am-7pm","hours2":"Thu 11am-8pm","hours3":"Sun 12am-7pm"}]